{
  "type": "FeatureCollection",
  "features": [
    { "type": "Feature", "geometry": { "type": "Point", "coordinates": [7.260552, 51.445102] }, "properties": { "name": "RUB", "type": "Bildung", "activeHours": [8, 20] } },
    { "type": "Feature", "geometry": { "type": "Point", "coordinates": [7.214546, 51.483198] }, "properties": { "name": "Stadtbücherei", "type": "Bildung", "activeHours": [9, 19] } },
    { "type": "Feature", "geometry": { "type": "Point", "coordinates": [7.167335, 51.445929] }, "properties": { "name": "Dietrich-Bonhoeffer-Schule", "type": "Bildung", "activeHours": [8, 16] } },
    { "type": "Feature", "geometry": { "type": "Point", "coordinates": [7.213928, 51.482867] }, "properties": { "name": "Volkshochschule", "type": "Bildung", "activeHours": [9, 21] } },
    { "type": "Feature", "geometry": { "type": "Point", "coordinates": [7.225819, 51.456879] }, "properties": { "name": "Fachhochschule des Bundes für öffentliche Verwaltung", "type": "Bildung", "activeHours": [8, 20] } },
    { "type": "Feature", "geometry": { "type": "Point", "coordinates": [7.150695, 51.495963] }, "properties": { "name": "Kindergarten Herz Mariä", "type": "Bildung", "activeHours": [7, 17] } },
    { "type": "Feature", "geometry": { "type": "Point", "coordinates": [7.221077, 51.487365] }, "properties": { "name": "Kunstmuseum Bochum", "type": "Kultur", "activeHours": [10, 18] } },
    { "type": "Feature", "geometry": { "type": "Point", "coordinates": [7.217516, 51.450899] }, "properties": { "name": "Prinzregenttheater", "type": "Kultur", "activeHours": [19, 23] } },
    { "type": "Feature", "geometry": { "type": "Point", "coordinates": [7.198121, 51.481237] }, "properties": { "name": "Jahrhunderthalle (Konzerthalle)", "type": "Kultur", "activeHours": [18, 23] } },
    { "type": "Feature", "geometry": { "type": "Point", "coordinates": [7.215756, 51.489113] }, "properties": { "name": "Bergbaumuseum", "type": "Kultur", "activeHours": [10, 18] } },
    { "type": "Feature", "geometry": { "type": "Point", "coordinates": [7.216513, 51.477033] }, "properties": { "name": "Bermuda - Shisha, Lounge, Café Bar", "type": "Freizeit", "activeHours": [16, 2] } },
    { "type": "Feature", "geometry": { "type": "Point", "coordinates": [7.216904, 51.476784] }, "properties": { "name": "Union Kino", "type": "Freizeit", "activeHours": [14, 23] } },
    { "type": "Feature", "geometry": { "type": "Point", "coordinates": [7.222709, 51.497987] }, "properties": { "name": "Gastronomie Erholung am Stadtpark", "type": "Freizeit", "activeHours": [6, 20] } },
    { "type": "Feature", "geometry": { "type": "Point", "coordinates": [7.226823, 51.489881] }, "properties": { "name": "Tierpark + Fossilium Bochum", "type": "Freizeit", "activeHours": [9, 18] } },
    { "type": "Feature", "geometry": { "type": "Point", "coordinates": [7.265688, 51.443494] }, "properties": { "name": "Botanischer Garten der Ruhr-Universität Bochum", "type": "Freizeit", "activeHours": [8, 20] } },
    { "type": "Feature", "geometry": { "type": "Point", "coordinates": [7.278467, 51.494930] }, "properties": { "name": "Fitness Station Bochum", "type": "Sport", "activeHours": [6, 22] } },
    { "type": "Feature", "geometry": { "type": "Point", "coordinates": [7.301976, 51.484801] }, "properties": { "name": "Lehrschwimmbecken", "type": "Freizeit", "activeHours": [8, 21] } },
    { "type": "Feature", "geometry": { "type": "Point", "coordinates": [7.308142, 51.487433] }, "properties": { "name": "Jugendetage (Jugendfreizeiteinrichtung)", "type": "Bildung", "activeHours": [10, 22] } },
    { "type": "Feature", "geometry": { "type": "Point", "coordinates": [7.232855, 51.451915] }, "properties": { "name": "Kita-Spielplatz", "type": "Freizeit", "activeHours": [8, 20] } },
    { "type": "Feature", "geometry": { "type": "Point", "coordinates": [7.262723, 51.442745] }, "properties": { "name": "Campussporthalle (CASPO)", "type": "Sport", "activeHours": [8, 20] } },
    { "type": "Feature", "geometry": { "type": "Point", "coordinates": [7.246790, 51.476861] }, "properties": { "name": "Tennisclub Freigrafendamm ", "type": "Sport", "activeHours": [8, 20] } },
    { "type": "Feature", "geometry": { "type": "Point", "coordinates": [7.214416, 51.488095] }, "properties": { "name": "Bochumer Bowling Treff", "type": "Freizeit", "activeHours": [10, 23] } },
    { "type": "Feature", "geometry": { "type": "Point", "coordinates": [7.222347, 51.479498] }, "properties": { "name": "Hauptbahnhof", "type": "Verkehr", "activeHours": [0, 24] } },
    { "type": "Feature", "geometry": { "type": "Point", "coordinates": [7.129992, 51.482239] }, "properties": { "name": "Parkhaus Gertrudiscenter", "type": "Verkehr", "activeHours": [0, 24] } },
    { "type": "Feature", "geometry": { "type": "Point", "coordinates": [7.237781, 51.474536] }, "properties": { "name": "Taxi Station", "type": "Verkehr", "activeHours": [0, 24] } },
    { "type": "Feature", "geometry": { "type": "Point", "coordinates": [7.217569, 51.494957] }, "properties": { "name": "sigo E-Lastenrad Standort", "type": "Verkehr", "activeHours": [8, 20] } },
    { "type": "Feature", "geometry": { "type": "Point", "coordinates": [7.284601, 51.495198] }, "properties": { "name": "Ladestation Ruhr Park", "type": "Verkehr", "activeHours": [0, 24] } },
    { "type": "Feature", "geometry": { "type": "Point", "coordinates": [7.158414, 51.425283] }, "properties": { "name": "Esso (Tankstelle)", "type": "Verkehr", "activeHours": [0, 24] } },
    { "type": "Feature", "geometry": { "type": "Point", "coordinates": [7.215940, 51.482984] }, "properties": { "name": "Eisscafé Rialto", "type": "Gastronomie", "activeHours": [10, 22] } },
    { "type": "Feature", "geometry": { "type": "Point", "coordinates": [7.231529, 51.452137] }, "properties": { "name": "Restaurant Tafelspitz", "type": "Gastronomie", "activeHours": [0, 24] } },
    { "type": "Feature", "geometry": { "type": "Point", "coordinates": [7.213542, 51.491533] }, "properties": { "name": "Little Break Café", "type": "Gastronomie", "activeHours": [8, 22] } },
    { "type": "Feature", "geometry": { "type": "Point", "coordinates": [7.228347, 51.454999] }, "properties": { "name": "Pizzeria Funghi", "type": "Gastronomie", "activeHours": [11, 23] } },
    { "type": "Feature", "geometry": { "type": "Point", "coordinates": [7.212387, 51.464655] }, "properties": { "name": "Bäckerei Klingenstein", "type": "Gastronomie", "activeHours": [6, 18] } },
    { "type": "Feature", "geometry": { "type": "Point", "coordinates": [7.272753, 51.516365] }, "properties": { "name": "Nicos-Grill Imbiss", "type": "Gastronomie", "activeHours": [10, 20] } },
    { "type": "Feature", "geometry": { "type": "Point", "coordinates": [7.302498, 51.476484] }, "properties": { "name": "Asia Wok", "type": "Gastronomie", "activeHours": [12, 22] } },
    { "type": "Feature", "geometry": { "type": "Point", "coordinates": [7.261888, 51.450065] }, "properties": { "name": "Hustadt-Apotheke", "type": "Gesundheit", "activeHours": [12, 22] } },
    { "type": "Feature", "geometry": { "type": "Point", "coordinates": [7.324927, 51.473845] }, "properties": { "name": "Sparkasse", "type": "Bank", "activeHours": [9, 17] } },
    { "type": "Feature", "geometry": { "type": "Point", "coordinates": [7.144838, 51.426469] }, "properties": { "name": "REWE", "type": "Einzelhandel", "activeHours": [9, 17] } }
  ]
}